site,lat,lon,Chapter
Cairngorms,57.07,-3.49,Chapter 3
Qikiqtaruk,70.4928,-147.2923,Chapter 4
Qikiqtaruk,70.4928,-147.2923,Chapter 2
Niwot Ridge,40.059457,-105.616993,Chapter 3
Toolik Lake,68.628275,-149.59412,Chapter 3
Kluane,61.285046,-138.9287,Chapter 3
BC Coastal Mountains,50.042282,-123.1929,Chapter 3
Svalbard,78.186313,15.984797,Chapter 5
Toolik Lake,68.628275,-149.59412,Chapter 2
Kluane,61.285046,-138.9287,Chapter 2